[
  {
    "name": "삼첩분식,덮덮밥 본점",
    "address": "대구광역시 북구 대학로 71",
    "district": "대구광역시 북구",
    "lat": null,
    "lon": null,
    "phone": ""
  },
  {
    "name": "",
    "address": "",
    "district": "",
    "lat": null,
    "lon": null,
    "phone": ""
  },
  {
    "name": "범물본가국수 대현점",
    "address": "대구광역시 북구 대현로 109",
    "district": "",
    "lat": null,
    "lon": null,
    "phone": ""
  },
  {
    "name": "미씽파파",
    "address": "대구광역시 북구 대현로15길 21",
    "district": "대구광역시 북구",
    "lat": null,
    "lon": null,
    "phone": ""
  },
  {
    "name": "소림마라 경북대점",
    "address": "대구광역시 북구 경대로7길 15-1",
    "district": "대구광역시 북구",
    "lat": null,
    "lon": null,
    "phone": "070-4833-7373"
  },
  {
    "name": "새카만",
    "address": "대구광역시 북구 경대로19길 34",
    "district": "대구광역시 북구",
    "lat": null,
    "lon": null,
    "phone": "010-8713-0649"
  },
  {
    "name": "첫눈에찜한닭",
    "address": "대구광역시 북구 대현로19길 29",
    "district": "대구광역시 북구",
    "lat": null,
    "lon": null,
    "phone": ""
  },
  {
    "name": "냉면당 본점",
    "address": "대구광역시 북구 경대로 29",
    "district": "대구광역시 북구",
    "lat": null,
    "lon": null,
    "phone": ""
  },
  {
    "name": "우즈카츠",
    "address": "대구광역시 북구 경대로17길 46-1",
    "district": "대구광역시 북구",
    "lat": null,
    "lon": null,
    "phone": ""
  },
  {
    "name": "명덕총각족발 경대북문점",
    "address": "대구광역시 북구 대학로13길 16-1",
    "district": "대구광역시 북구",
    "lat": null,
    "lon": null,
    "phone": "053-942-9990"
  }
]
